[{"company":"NLB","route":"11R","routeType":null,"dir":null,"orig":"塘福","dest":"東涌站巴士總站","stopList":[{"id":"181","name":"塘福","lat":"22.22761600","long":"113.93228900","street":"塘福","fare":"9.2","fareHoliday":"16.0"},{"id":"246","name":"塘福海灘","lat":"22.22894100","long":"113.93594400","street":"嶼南道","fare":"9.2","fareHoliday":"16.0"},{"id":"247","name":"上長沙海灘","lat":"22.23132900","long":"113.94176600","street":"嶼南道","fare":"9.2","fareHoliday":"16.0"},{"id":"252","name":"長沙下村","lat":"22.23496500","long":"113.95717000","street":"嶼南道","fare":"9.2","fareHoliday":"16.0"},{"id":"65","name":"伯公坳","lat":"22.24805400","long":"113.94313900","street":"東涌道","fare":"9.2","fareHoliday":"16.0"},{"id":"77","name":"東涌消防局","lat":"22.28603000","long":"113.94105700","street":"順東路","fare":"9.2","fareHoliday":"16.0"},{"id":"321","name":"東涌纜車站","lat":"22.28930100","long":"113.93873300","street":"達東路","fare":"9.2","fareHoliday":"16.0"},{"id":"79","name":"東涌站巴士總站","lat":"22.28986200","long":"113.93961600","street":"達東路","fare":"0.0","fareHoliday":"0.0"}],"routeId":"98"},{"company":"NLB","route":"11R","routeType":null,"dir":null,"orig":"東涌站巴士總站","dest":"塘福","stopList":[{"id":"278","name":"東涌站巴士總站","lat":"22.28986200","long":"113.93961600","street":"達東路","fare":"9.2","fareHoliday":"16.0"},{"id":"288","name":"伯公坳","lat":"22.24893900","long":"113.94259700","street":"東涌道","fare":"9.2","fareHoliday":"16.0"},{"id":"21","name":"長沙下村","lat":"22.23478700","long":"113.95723200","street":"嶼南道","fare":"9.2","fareHoliday":"16.0"},{"id":"26","name":"上長沙海灘","lat":"22.23087700","long":"113.94152500","street":"嶼南道","fare":"9.2","fareHoliday":"16.0"},{"id":"27","name":"塘福海灘","lat":"22.22850900","long":"113.93533900","street":"嶼南道","fare":"9.2","fareHoliday":"16.0"},{"id":"181","name":"塘福","lat":"22.22761600","long":"113.93228900","street":"塘福","fare":"0.0","fareHoliday":"0.0"}],"routeId":"97"}]