[{"company":"NLB","route":"1R","routeType":null,"dir":null,"orig":"紅磡 (紅鸞道)","dest":"昂坪","stopList":[{"id":"127","name":"紅磡 (紅鸞道)","lat":"22.30141600","long":"114.18809200","street":"紅磡灣紅鸞道","fare":"0.0","fareHoliday":"47.2"},{"id":"128","name":"尖東港鐵站","lat":"22.29479800","long":"114.17438000","street":"梳士巴利道","fare":"0.0","fareHoliday":"47.2"},{"id":"129","name":"九龍公園","lat":"22.29872100","long":"114.17192800","street":"彌敦道","fare":"0.0","fareHoliday":"47.2"},{"id":"183","name":"奶路臣街","lat":"22.31801800","long":"114.16951500","street":"彌敦道","fare":"0.0","fareHoliday":"47.2"},{"id":"131","name":"太子港鐵站","lat":"22.32581600","long":"114.16787600","street":"彌敦道","fare":"0.0","fareHoliday":"47.2"},{"id":"132","name":"欽州街","lat":"22.33129900","long":"114.16136900","street":"長沙灣道","fare":"0.0","fareHoliday":"47.2"},{"id":"184","name":"怡閣苑","lat":"22.33389400","long":"114.15804300","street":"長沙灣道","fare":"0.0","fareHoliday":"47.2"},{"id":"317","name":"東涌達東路巴士總站","lat":"22.29058000","long":"113.93935200","street":"達東路","fare":"0.0","fareHoliday":"31.0"},{"id":"28","name":"塘福村","lat":"22.22756500","long":"113.93270600","street":"嶼南道","fare":"0.0","fareHoliday":"31.0"},{"id":"62","name":"昂坪","lat":"22.25561200","long":"113.90286200","street":"寶昂路","fare":"0.0","fareHoliday":"0.0"}],"routeId":"3"}]