[{"company":"NLB","route":"34S","routeType":null,"dir":null,"orig":"東涌達東路巴士總站","dest":"十八區墳場 (循環線)","stopList":[{"id":"278","name":"東涌站巴士總站","lat":"22.28986200","long":"113.93961600","street":"達東路","fare":"0.0","fareHoliday":"4.7"},{"id":"80","name":"富東廣場","lat":"22.28887000","long":"113.94210500","street":"達東路","fare":"0.0","fareHoliday":"4.7"},{"id":"81","name":"裕東苑","lat":"22.28607700","long":"113.94160300","street":"順東路","fare":"0.0","fareHoliday":"4.7"},{"id":"185","name":"北大嶼山醫院(北行), 逸東邨美逸樓","lat":"22.28129500","long":"113.93882200","street":"松仁路","fare":"0.0","fareHoliday":"4.7"},{"id":"89","name":"逸東邨","lat":"22.28205300","long":"113.93586200","street":"逸東街","fare":"0.0","fareHoliday":"4.7"},{"id":"76","name":"北大嶼山醫院(南行)","lat":"22.28186100","long":"113.93880300","street":"松仁路","fare":"0.0","fareHoliday":"4.7"},{"id":"90","name":"裕泰苑","lat":"22.28056500","long":"113.94106400","street":"東涌道","fare":"0.0","fareHoliday":"4.7"},{"id":"73","name":"東涌鄉事委員會","lat":"22.27913800","long":"113.93929900","street":"東涌道","fare":"0.0","fareHoliday":"4.7"},{"id":"279","name":"上嶺皮","lat":"22.27879200","long":"113.93714800","street":"東涌道","fare":"0.0","fareHoliday":"4.7"},{"id":"71","name":"下嶺皮","lat":"22.27873100","long":"113.93547500","street":"東涌道","fare":"0.0","fareHoliday":"4.7"},{"id":"70","name":"黃家圍","lat":"22.27716200","long":"113.93381200","street":"東涌道","fare":"0.0","fareHoliday":"4.7"},{"id":"283","name":"龍井頭","lat":"22.27570700","long":"113.93370700","street":"東涌道","fare":"0.0","fareHoliday":"4.7"},{"id":"284","name":"石門甲道","lat":"22.27047000","long":"113.93446500","street":"東涌道","fare":"0.0","fareHoliday":"4.7"},{"id":"286","name":"十八區墳場","lat":"22.26567800","long":"113.93674000","street":"東涌道","fare":"0.0","fareHoliday":"4.7"},{"id":"68","name":"石門甲道","lat":"22.26991800","long":"113.93424300","street":"東涌道","fare":"0.0","fareHoliday":"4.7"},{"id":"283","name":"龍井頭","lat":"22.27570700","long":"113.93370700","street":"東涌道","fare":"0.0","fareHoliday":"4.7"},{"id":"70","name":"黃家圍","lat":"22.27716200","long":"113.93381200","street":"東涌道","fare":"0.0","fareHoliday":"4.7"},{"id":"71","name":"下嶺皮","lat":"22.27873100","long":"113.93547500","street":"東涌道","fare":"0.0","fareHoliday":"4.7"},{"id":"72","name":"上嶺皮","lat":"22.27891200","long":"113.93685600","street":"東涌道","fare":"0.0","fareHoliday":"4.7"},{"id":"94","name":"東涌鄉事委員會","lat":"22.27893600","long":"113.93879500","street":"東涌道","fare":"0.0","fareHoliday":"4.7"},{"id":"90","name":"裕泰苑","lat":"22.28056500","long":"113.94106400","street":"東涌道","fare":"0.0","fareHoliday":"4.7"},{"id":"185","name":"北大嶼山醫院(北行), 逸東邨美逸樓","lat":"22.28129500","long":"113.93882200","street":"松仁路","fare":"0.0","fareHoliday":"4.7"},{"id":"89","name":"逸東邨","lat":"22.28205300","long":"113.93586200","street":"逸東街","fare":"0.0","fareHoliday":"4.7"},{"id":"76","name":"北大嶼山醫院(南行)","lat":"22.28186100","long":"113.93880300","street":"松仁路","fare":"0.0","fareHoliday":"4.7"},{"id":"77","name":"東涌消防局","lat":"22.28603000","long":"113.94105700","street":"順東路","fare":"0.0","fareHoliday":"4.7"},{"id":"78","name":"東涌纜車站","lat":"22.28930100","long":"113.93873300","street":"達東路","fare":"0.0","fareHoliday":"4.7"},{"id":"79","name":"東涌站巴士總站","lat":"22.28986200","long":"113.93961600","street":"達東路","fare":"0.0","fareHoliday":"0.0"}],"routeId":"71"}]