[{"company":"kmb","route":"36","routeType":"1","dir":"O","orig":"荃灣西站","dest":"梨木樹(循環線)","stopList":[{"id":"EDD3C420910A50CA","name":"荃灣西站巴士總站","lat":"22.368116","long":"114.110443"},{"id":"A23B54EC3487EF41","name":"戴麟趾夫人診所","lat":"22.370525","long":"114.115412"},{"id":"D21D129C5E4F402C","name":"荃灣鹹田街","lat":"22.369533","long":"114.117252"},{"id":"81BBDC83713D1C2F","name":"名逸居","lat":"22.367780","long":"114.120500"},{"id":"FD80BB497E0791CA","name":"荃富街公園","lat":"22.368853","long":"114.121667"},{"id":"CAF9395414DBD090","name":"綠楊新邨","lat":"22.371592","long":"114.121036"},{"id":"F9475B6C5F5B9C21","name":"石圍角邨石蓮樓","lat":"22.374675","long":"114.122651"},{"id":"B18C8718C0B7904F","name":"石圍角邨石菊樓","lat":"22.376118","long":"114.124570"},{"id":"D1A1DF2BDC842EE5","name":"東普陀","lat":"22.378716","long":"114.126958"},{"id":"33A7AB58611A0F6D","name":"三棟屋村","lat":"22.379813","long":"114.129474"},{"id":"B1D6CA16EE22225D","name":"象山邨秀山樓","lat":"22.378878","long":"114.131633"},{"id":"97BB9CE7A058E809","name":"可風中學","lat":"22.380443","long":"114.135135"},{"id":"30000427BD163F84","name":"梨木樹巴士總站","lat":"22.377516","long":"114.136640"},{"id":"03A5552B84E8214B","name":"和宜合道運動場","lat":"22.374165","long":"114.136527"},{"id":"0B4807A5C0DAF24A","name":"昌榮路","lat":"22.370602","long":"114.134772"},{"id":"4C7927148D79A446","name":"昌榮路迴旋處","lat":"22.370199","long":"114.133106"},{"id":"CA4777DC41555D2C","name":"國瑞路公園","lat":"22.371634","long":"114.129941"},{"id":"A958EF1ECDA5CC4A","name":"大窩口站","lat":"22.371109","long":"114.126402"},{"id":"2BDB51D5618D546F","name":"荃灣荃富街","lat":"22.367579","long":"114.121947"},{"id":"3A99869DB9D31D45","name":"尚翠苑","lat":"22.367524","long":"114.120504"},{"id":"1C179AC6FE83C808","name":"寶石大廈","lat":"22.368857","long":"114.118050"},{"id":"E8B842CC3AB62056","name":"戴麟趾夫人診所","lat":"22.369949","long":"114.116026"},{"id":"EDD3C420910A50CA","name":"荃灣西站巴士總站","lat":"22.368116","long":"114.110443"}],"routeId":"36","description":"正常班次"},{"company":"kmb","route":"36","routeType":"2","dir":"O","orig":"梨木樹","dest":"荃灣西站","stopList":[{"id":"30000427BD163F84","name":"梨木樹巴士總站","lat":"22.377516","long":"114.136640"},{"id":"03A5552B84E8214B","name":"和宜合道運動場","lat":"22.374165","long":"114.136527"},{"id":"0B4807A5C0DAF24A","name":"昌榮路","lat":"22.370602","long":"114.134772"},{"id":"4C7927148D79A446","name":"昌榮路迴旋處","lat":"22.370199","long":"114.133106"},{"id":"CA4777DC41555D2C","name":"國瑞路公園","lat":"22.371634","long":"114.129941"},{"id":"A958EF1ECDA5CC4A","name":"大窩口站","lat":"22.371109","long":"114.126402"},{"id":"2BDB51D5618D546F","name":"荃灣荃富街","lat":"22.367579","long":"114.121947"},{"id":"3A99869DB9D31D45","name":"尚翠苑","lat":"22.367524","long":"114.120504"},{"id":"1C179AC6FE83C808","name":"寶石大廈","lat":"22.368857","long":"114.118050"},{"id":"E8B842CC3AB62056","name":"戴麟趾夫人診所","lat":"22.369949","long":"114.116026"},{"id":"EDD3C420910A50CA","name":"荃灣西站巴士總站","lat":"22.368116","long":"114.110443"}],"routeId":"36","description":"特別班次"},{"company":"nlb","route":"36","routeType":null,"dir":null,"orig":"小蠔灣","dest":"東涌達東路巴士總站","stopList":[{"id":"328","name":"迪士尼樂園","lat":"22.31635600","long":"114.04573200","street":"幻想道","fare":"9.8","fareHoliday":"9.8"},{"id":"293","name":"小蠔灣","lat":"22.31551900","long":"113.99797500","street":"深豐路","fare":"4.7","fareHoliday":"4.7"},{"id":"96","name":"小蠔灣濾水廠","lat":"22.31359500","long":"113.99573400","street":"翔東路","fare":"4.7","fareHoliday":"4.7"},{"id":"97","name":"愉景灣隧道","lat":"22.31002200","long":"113.99058400","street":"翔東路","fare":"4.7","fareHoliday":"4.7"},{"id":"294","name":"政府維修廠","lat":"22.30928300","long":"113.98925400","street":"翔東路","fare":"4.7","fareHoliday":"4.7"},{"id":"295","name":"白芒","lat":"22.29796400","long":"113.96758000","street":"翔東路","fare":"4.7","fareHoliday":"4.7"},{"id":"80","name":"富東廣場","lat":"22.28887000","long":"113.94210500","street":"達東路","fare":"4.7","fareHoliday":"4.7"},{"id":"78","name":"東涌纜車站","lat":"22.28930100","long":"113.93873300","street":"達東路","fare":"4.7","fareHoliday":"4.7"},{"id":"318","name":"東涌達東路巴士總站","lat":"22.29058000","long":"113.93935200","street":"達東路","fare":"0.0","fareHoliday":"0.0"}],"routeId":"26","description":"正常班次"},{"company":"nlb","route":"36","routeType":null,"dir":null,"orig":"東涌達東路巴士總站","dest":"迪士尼樂園","stopList":[{"id":"317","name":"東涌達東路巴士總站","lat":"22.29058000","long":"113.93935200","street":"達東路","fare":"9.8","fareHoliday":"9.8"},{"id":"100","name":"東薈城","lat":"22.29013600","long":"113.94147400","street":"達東路","fare":"9.8","fareHoliday":"9.8"},{"id":"295","name":"白芒","lat":"22.29796400","long":"113.96758000","street":"翔東路","fare":"9.8","fareHoliday":"9.8"},{"id":"98","name":"政府維修廠","lat":"22.30893500","long":"113.98945100","street":"翔東路","fare":"9.8","fareHoliday":"9.8"},{"id":"95","name":"小蠔灣","lat":"22.31551900","long":"113.99797500","street":"深豐路","fare":"9.8","fareHoliday":"9.8"},{"id":"327","name":"迪士尼樂園","lat":"22.31635600","long":"114.04573200","street":"幻想道","fare":"0.0","fareHoliday":"0.0"}],"routeId":"101","description":"正常班次"},{"company":"nlb","route":"36","routeType":null,"dir":null,"orig":"迪士尼樂園","dest":"東涌達東路巴士總站","stopList":[{"id":"328","name":"迪士尼樂園","lat":"22.31635600","long":"114.04573200","street":"幻想道","fare":"9.8","fareHoliday":"9.8"},{"id":"293","name":"小蠔灣","lat":"22.31551900","long":"113.99797500","street":"深豐路","fare":"4.7","fareHoliday":"4.7"},{"id":"96","name":"小蠔灣濾水廠","lat":"22.31359500","long":"113.99573400","street":"翔東路","fare":"4.7","fareHoliday":"4.7"},{"id":"97","name":"愉景灣隧道","lat":"22.31002200","long":"113.99058400","street":"翔東路","fare":"4.7","fareHoliday":"4.7"},{"id":"294","name":"政府維修廠","lat":"22.30928300","long":"113.98925400","street":"翔東路","fare":"4.7","fareHoliday":"4.7"},{"id":"99","name":"白芒","lat":"22.29796400","long":"113.96758000","street":"翔東路","fare":"4.7","fareHoliday":"4.7"},{"id":"80","name":"富東廣場","lat":"22.28887000","long":"113.94210500","street":"達東路","fare":"4.7","fareHoliday":"4.7"},{"id":"321","name":"東涌纜車站","lat":"22.28930100","long":"113.93873300","street":"達東路","fare":"4.7","fareHoliday":"4.7"},{"id":"318","name":"東涌達東路巴士總站","lat":"22.29058000","long":"113.93935200","street":"達東路","fare":"0.0","fareHoliday":"0.0"}],"routeId":"102","description":"正常班次"},{"company":"nlb","route":"36","routeType":null,"dir":null,"orig":"東涌達東路巴士總站","dest":"小蠔灣","stopList":[{"id":"317","name":"東涌達東路巴士總站","lat":"22.29058000","long":"113.93935200","street":"達東路","fare":"9.8","fareHoliday":"9.8"},{"id":"100","name":"東薈城","lat":"22.29013600","long":"113.94147400","street":"達東路","fare":"9.8","fareHoliday":"9.8"},{"id":"99","name":"白芒","lat":"22.29796400","long":"113.96758000","street":"翔東路","fare":"9.8","fareHoliday":"9.8"},{"id":"98","name":"政府維修廠","lat":"22.30893500","long":"113.98945100","street":"翔東路","fare":"9.8","fareHoliday":"9.8"},{"id":"95","name":"小蠔灣","lat":"22.31551900","long":"113.99797500","street":"深豐路","fare":"9.8","fareHoliday":"9.8"},{"id":"327","name":"迪士尼樂園","lat":"22.31635600","long":"114.04573200","street":"幻想道","fare":"0.0","fareHoliday":"0.0"}],"routeId":"25","description":"正常班次"}]