[{"company":"KMB","route":"39M","routeType":"1","dir":"O","orig":"荃灣(荃威花園)","dest":"荃灣站(循環線)","stopList":[{"id":"A6DCDE5BE439B179","name":"荃威花園總站","lat":"22.377435","long":"114.104131"},{"id":"FE30EA565CC9ADBE","name":"荃景圍街巿","lat":"22.378755","long":"114.104288"},{"id":"D1CAF0CE0129B0E6","name":"荃灣中心","lat":"22.378619","long":"114.107064"},{"id":"CF2B9E9382183398","name":"荃景花園第二期","lat":"22.377698","long":"114.110250"},{"id":"C5C940CF1281B923","name":"美環街","lat":"22.376370","long":"114.110711"},{"id":"9429666D064419BE","name":"愉景新城","lat":"22.375047","long":"114.112821"},{"id":"EF4016702D714B33","name":"荃灣站","lat":"22.374488","long":"114.115819"},{"id":"D711AFA9658D51E9","name":"荃灣富華街","lat":"22.373486","long":"114.115860"},{"id":"3F545756160D7BEA","name":"福來邨永康樓","lat":"22.374433","long":"114.113771"},{"id":"50C0A622B149C308","name":"美環街","lat":"22.376345","long":"114.110501"},{"id":"A73739F6D37090EE","name":"荃景花園","lat":"22.378110","long":"114.109520"},{"id":"07814531B88CD829","name":"荃灣中心","lat":"22.378635","long":"114.108257"},{"id":"A722DAAC99CE03D4","name":"聖母領報堂","lat":"22.377067","long":"114.105443"},{"id":"5FD70A34C55CE590","name":"荃灣港安醫院","lat":"22.376212","long":"114.104470"},{"id":"A6DCDE5BE439B179","name":"荃威花園總站","lat":"22.377435","long":"114.104131"}],"routeId":"39M"},{"company":"NLB","route":"39M","routeType":null,"dir":null,"orig":"滿東邨","dest":"東涌港鐵站 (循環線)","stopList":[{"id":"309","name":"滿東邨","lat":"22.27865300","long":"113.93320300","street":"裕東路","fare":"3.2","fareHoliday":"3.2"},{"id":"103","name":"逸東邨福逸樓","lat":"22.27921600","long":"113.93465100","street":"裕東路","fare":"3.2","fareHoliday":"3.2"},{"id":"306","name":"逸東邨雍逸樓","lat":"22.27974400","long":"113.93699500","street":"裕東路","fare":"3.2","fareHoliday":"3.2"},{"id":"77","name":"東涌消防局","lat":"22.28603000","long":"113.94105700","street":"順東路","fare":"3.2","fareHoliday":"3.2"},{"id":"78","name":"東涌纜車站","lat":"22.28930100","long":"113.93873300","street":"達東路","fare":"3.2","fareHoliday":"3.2"},{"id":"105","name":"東涌港鐵站","lat":"22.28961300","long":"113.94021000","street":"達東路","fare":"3.2","fareHoliday":"3.2"},{"id":"81","name":"裕東苑","lat":"22.28607700","long":"113.94160300","street":"順東路","fare":"3.2","fareHoliday":"3.2"},{"id":"310","name":"滿東邨","lat":"22.27892200","long":"113.93455600","street":"裕東路","fare":"3.2","fareHoliday":"3.2"}],"routeId":"94"},{"company":"NLB","route":"39M","routeType":null,"dir":null,"orig":"東涌站巴士總站","dest":"滿東邨 (循環線)","stopList":[{"id":"278","name":"東涌站巴士總站","lat":"22.28986200","long":"113.93961600","street":"達東路","fare":"3.5","fareHoliday":"3.5"},{"id":"81","name":"裕東苑","lat":"22.28607700","long":"113.94160300","street":"順東路","fare":"3.5","fareHoliday":"3.5"},{"id":"309","name":"滿東邨","lat":"22.27865300","long":"113.93320300","street":"裕東路","fare":"3.5","fareHoliday":"3.5"},{"id":"103","name":"逸東邨福逸樓","lat":"22.27921600","long":"113.93465100","street":"裕東路","fare":"3.5","fareHoliday":"3.5"},{"id":"306","name":"逸東邨雍逸樓","lat":"22.27974400","long":"113.93699500","street":"裕東路","fare":"3.5","fareHoliday":"3.5"},{"id":"77","name":"東涌消防局","lat":"22.28603000","long":"113.94105700","street":"順東路","fare":"3.5","fareHoliday":"3.5"},{"id":"78","name":"東涌纜車站","lat":"22.28930100","long":"113.93873300","street":"達東路","fare":"3.5","fareHoliday":"3.5"},{"id":"79","name":"東涌站巴士總站","lat":"22.28986200","long":"113.93961600","street":"達東路","fare":"0.0","fareHoliday":"0.0"}],"routeId":"95"}]