[{"company":"NLB","route":"A35","routeType":null,"dir":null,"orig":"大橋香港口岸","dest":"梅窩碼頭","stopList":[{"id":"307","name":"大橋香港口岸","lat":"22.31640000","long":"113.95085600","street":"大橋香港口岸 (抵港層)","fare":"18.3","fareHoliday":"29.6"},{"id":"117","name":"機場(客運大樓)","lat":"22.31456900","long":"113.93661000","street":"暢達路","fare":"16.3","fareHoliday":"27.4"},{"id":"118","name":"暢達路","lat":"22.31623600","long":"113.93594800","street":"暢達路","fare":"16.3","fareHoliday":"27.4"},{"id":"120","name":"富豪機場酒店","lat":"22.31943000","long":"113.93394200","street":"暢達路","fare":"16.3","fareHoliday":"27.4"},{"id":"274","name":"國泰城","lat":"22.29755500","long":"113.93336000","street":"觀景路","fare":"16.3","fareHoliday":"27.4"},{"id":"277","name":"飛機燃料庫","lat":"22.29307500","long":"113.93222900","street":"觀景路","fare":"16.3","fareHoliday":"27.4"},{"id":"78","name":"東涌纜車站","lat":"22.28930100","long":"113.93873300","street":"達東路","fare":"12.3","fareHoliday":"20.2"},{"id":"79","name":"東涌站巴士總站","lat":"22.28986200","long":"113.93961600","street":"達東路","fare":"12.3","fareHoliday":"20.2"},{"id":"80","name":"富東廣場","lat":"22.28887000","long":"113.94210500","street":"達東路","fare":"12.3","fareHoliday":"20.2"},{"id":"81","name":"裕東苑","lat":"22.28607700","long":"113.94160300","street":"順東路","fare":"12.3","fareHoliday":"20.2"},{"id":"90","name":"裕泰苑","lat":"22.28056500","long":"113.94106400","street":"東涌道","fare":"12.3","fareHoliday":"20.2"},{"id":"94","name":"東涌鄉事委員會","lat":"22.27893600","long":"113.93879500","street":"東涌道","fare":"12.3","fareHoliday":"20.2"},{"id":"279","name":"上嶺皮","lat":"22.27879200","long":"113.93714800","street":"東涌道","fare":"12.3","fareHoliday":"20.2"},{"id":"280","name":"下嶺皮","lat":"22.27851200","long":"113.93542300","street":"東涌道","fare":"12.3","fareHoliday":"20.2"},{"id":"282","name":"黃家圍","lat":"22.27703800","long":"113.93397500","street":"東涌道","fare":"12.3","fareHoliday":"20.2"},{"id":"283","name":"龍井頭","lat":"22.27570700","long":"113.93370700","street":"東涌道","fare":"12.3","fareHoliday":"20.2"},{"id":"284","name":"石門甲道","lat":"22.27047000","long":"113.93446500","street":"東涌道","fare":"12.3","fareHoliday":"20.2"},{"id":"286","name":"十八區墳場","lat":"22.26567800","long":"113.93674000","street":"東涌道","fare":"12.3","fareHoliday":"20.2"},{"id":"287","name":"東涌坳管理站","lat":"22.26410400","long":"113.93755200","street":"東涌道","fare":"12.3","fareHoliday":"20.2"},{"id":"288","name":"伯公坳","lat":"22.24893900","long":"113.94259700","street":"東涌道","fare":"12.3","fareHoliday":"20.2"},{"id":"273","name":"長沙引水道","lat":"22.24000700","long":"113.95733900","street":"東涌道","fare":"12.3","fareHoliday":"20.2"},{"id":"83","name":"散石灣迴旋處","lat":"22.23654400","long":"113.96255000","street":"嶼南道","fare":"12.3","fareHoliday":"20.2"},{"id":"19","name":"長沙上村","lat":"22.23523800","long":"113.96173900","street":"嶼南道","fare":"12.3","fareHoliday":"20.2"},{"id":"20","name":"長沙警署","lat":"22.23377200","long":"113.96021100","street":"嶼南道","fare":"12.3","fareHoliday":"20.2"},{"id":"21","name":"長沙下村","lat":"22.23478700","long":"113.95723200","street":"嶼南道","fare":"12.3","fareHoliday":"20.2"},{"id":"22","name":"長沙消防局","lat":"22.23663200","long":"113.95434900","street":"嶼南道","fare":"12.3","fareHoliday":"20.2"},{"id":"23","name":"麗濱別墅","lat":"22.23621700","long":"113.95191600","street":"嶼南道","fare":"12.3","fareHoliday":"20.2"},{"id":"24","name":"蝶崗","lat":"22.23454000","long":"113.94884100","street":"嶼南道","fare":"12.3","fareHoliday":"20.2"},{"id":"25","name":"長沙大橋","lat":"22.23338900","long":"113.94697700","street":"嶼南道","fare":"12.3","fareHoliday":"20.2"},{"id":"26","name":"上長沙海灘","lat":"22.23087700","long":"113.94152500","street":"嶼南道","fare":"12.3","fareHoliday":"20.2"},{"id":"27","name":"塘福海灘","lat":"22.22850900","long":"113.93533900","street":"嶼南道","fare":"12.3","fareHoliday":"20.2"},{"id":"28","name":"塘福村","lat":"22.22756500","long":"113.93270600","street":"嶼南道","fare":"6.7","fareHoliday":"13.7"},{"id":"246","name":"塘福海灘","lat":"22.22894100","long":"113.93594400","street":"嶼南道","fare":"6.7","fareHoliday":"13.7"},{"id":"247","name":"上長沙海灘","lat":"22.23132900","long":"113.94176600","street":"嶼南道","fare":"6.7","fareHoliday":"13.7"},{"id":"248","name":"長沙大橋","lat":"22.23397900","long":"113.94736600","street":"嶼南道","fare":"6.7","fareHoliday":"13.7"},{"id":"249","name":"蝶崗","lat":"22.23506200","long":"113.94929800","street":"嶼南道","fare":"5.1","fareHoliday":"7.4"},{"id":"250","name":"麗濱別墅","lat":"22.23647200","long":"113.95142400","street":"嶼南道","fare":"5.1","fareHoliday":"7.4"},{"id":"251","name":"長沙消防局","lat":"22.23680300","long":"113.95543400","street":"嶼南道","fare":"5.1","fareHoliday":"7.4"},{"id":"252","name":"長沙下村","lat":"22.23496500","long":"113.95717000","street":"嶼南道","fare":"5.1","fareHoliday":"7.4"},{"id":"253","name":"長沙警署","lat":"22.23396400","long":"113.96017400","street":"嶼南道","fare":"5.1","fareHoliday":"7.4"},{"id":"254","name":"長沙上村","lat":"22.23533000","long":"113.96154700","street":"嶼南道","fare":"5.1","fareHoliday":"7.4"},{"id":"255","name":"散石灣迴旋處","lat":"22.23672700","long":"113.96242400","street":"嶼南道","fare":"5.1","fareHoliday":"7.4"},{"id":"256","name":"女青年會梁紹榮度假村","lat":"22.23776800","long":"113.96397300","street":"嶼南道","fare":"5.1","fareHoliday":"7.4"},{"id":"257","name":"散石灣村","lat":"22.23902400","long":"113.96652600","street":"嶼南道","fare":"5.1","fareHoliday":"7.4"},{"id":"258","name":"散石灣中蘆","lat":"22.24125500","long":"113.96866600","street":"嶼南道","fare":"5.1","fareHoliday":"7.4"},{"id":"259","name":"羅屋村","lat":"22.24337500","long":"113.97483200","street":"嶼南道","fare":"4.0","fareHoliday":"6.1"},{"id":"260","name":"新圍村","lat":"22.24347600","long":"113.97732200","street":"嶼南道","fare":"4.0","fareHoliday":"6.1"},{"id":"261","name":"老圍村","lat":"22.24444000","long":"113.97900000","street":"嶼南道","fare":"4.0","fareHoliday":"6.1"},{"id":"262","name":"貝澳油站","lat":"22.24750100","long":"113.98077000","street":"嶼南道","fare":"4.0","fareHoliday":"6.1"},{"id":"263","name":"太古職員宿舍","lat":"22.25212000","long":"113.98474500","street":"嶼南道","fare":"4.0","fareHoliday":"6.1"},{"id":"264","name":"南山營地","lat":"22.25606700","long":"113.98747000","street":"嶼南道","fare":"4.0","fareHoliday":"6.1"},{"id":"265","name":"南山三屋村","lat":"22.25732700","long":"113.98990100","street":"嶼南道","fare":"4.0","fareHoliday":"6.1"},{"id":"56","name":"禮智園墳場","lat":"22.25932700","long":"113.99399300","street":"嶼南道","fare":"4.0","fareHoliday":"6.1"},{"id":"266","name":"荔枝園","lat":"22.26066700","long":"113.99626800","street":"嶼南道","fare":"4.0","fareHoliday":"6.1"},{"id":"57","name":"梅窩警署","lat":"22.26409300","long":"113.99890600","street":"嶼南道","fare":"4.0","fareHoliday":"6.1"},{"id":"2","name":"梅窩熟食市場","lat":"22.26614300","long":"114.00004900","street":"銀礦灣道","fare":"4.0","fareHoliday":"6.1"},{"id":"3","name":"銀灣邨","lat":"22.26540600","long":"113.99707400","street":"銀礦灣道","fare":"4.0","fareHoliday":"6.1"},{"id":"4","name":"梅窩街市","lat":"22.26675900","long":"113.99699900","street":"銀石街","fare":"4.0","fareHoliday":"6.1"},{"id":"5","name":"銀景中心","lat":"22.26553700","long":"113.99696500","street":"銀礦灣道","fare":"4.0","fareHoliday":"6.1"},{"id":"305","name":"梅窩碼頭","lat":"22.26466400","long":"114.00155400","street":"梅窩碼頭","fare":"0.0","fareHoliday":"0.0"}],"routeId":"91"},{"company":"NLB","route":"A35","routeType":null,"dir":null,"orig":"梅窩碼頭","dest":"大橋香港口岸","stopList":[{"id":"1","name":"梅窩碼頭","lat":"22.26466400","long":"114.00155400","street":"梅窩碼頭","fare":"18.3","fareHoliday":"29.6"},{"id":"2","name":"梅窩熟食市場","lat":"22.26614300","long":"114.00004900","street":"銀礦灣道","fare":"18.3","fareHoliday":"29.6"},{"id":"3","name":"銀灣邨","lat":"22.26540600","long":"113.99707400","street":"銀礦灣道","fare":"18.3","fareHoliday":"29.6"},{"id":"4","name":"梅窩街市","lat":"22.26675900","long":"113.99699900","street":"銀石街","fare":"18.3","fareHoliday":"29.6"},{"id":"5","name":"銀景中心","lat":"22.26553700","long":"113.99696500","street":"銀礦灣道","fare":"18.3","fareHoliday":"29.6"},{"id":"6","name":"銀鑛灣濾水廠","lat":"22.26296600","long":"113.99782600","street":"嶼南道","fare":"18.3","fareHoliday":"29.6"},{"id":"7","name":"荔枝園","lat":"22.26075800","long":"113.99647700","street":"嶼南道","fare":"18.3","fareHoliday":"29.6"},{"id":"8","name":"南山三屋村","lat":"22.25707200","long":"113.99010800","street":"嶼南道","fare":"18.3","fareHoliday":"29.6"},{"id":"9","name":"南山營地","lat":"22.25545100","long":"113.98681100","street":"嶼南道","fare":"18.3","fareHoliday":"29.6"},{"id":"10","name":"太古職員宿舍","lat":"22.25191800","long":"113.98488700","street":"嶼南道","fare":"18.3","fareHoliday":"29.6"},{"id":"11","name":"貝澳油站","lat":"22.24731100","long":"113.98098500","street":"嶼南道","fare":"16.0","fareHoliday":"24.6"},{"id":"12","name":"老圍村","lat":"22.24425200","long":"113.97923600","street":"嶼南道","fare":"16.0","fareHoliday":"24.6"},{"id":"13","name":"新圍村","lat":"22.24347600","long":"113.97817800","street":"嶼南道","fare":"16.0","fareHoliday":"24.6"},{"id":"14","name":"羅屋村","lat":"22.24319200","long":"113.97488500","street":"嶼南道","fare":"16.0","fareHoliday":"24.6"},{"id":"15","name":"牛坳園","lat":"22.24304100","long":"113.97254500","street":"嶼南道","fare":"16.0","fareHoliday":"24.6"},{"id":"16","name":"散石灣中蘆","lat":"22.24124400","long":"113.96910500","street":"嶼南道","fare":"16.0","fareHoliday":"24.6"},{"id":"17","name":"散石灣村","lat":"22.23892800","long":"113.96677200","street":"嶼南道","fare":"16.0","fareHoliday":"24.6"},{"id":"18","name":"女青年會梁紹榮度假村","lat":"22.23748400","long":"113.96400100","street":"嶼南道","fare":"16.0","fareHoliday":"24.6"},{"id":"83","name":"散石灣迴旋處","lat":"22.23654400","long":"113.96255000","street":"嶼南道","fare":"16.0","fareHoliday":"24.6"},{"id":"19","name":"長沙上村","lat":"22.23523800","long":"113.96173900","street":"嶼南道","fare":"16.0","fareHoliday":"24.6"},{"id":"20","name":"長沙警署","lat":"22.23377200","long":"113.96021100","street":"嶼南道","fare":"16.0","fareHoliday":"24.6"},{"id":"21","name":"長沙下村","lat":"22.23478700","long":"113.95723200","street":"嶼南道","fare":"16.0","fareHoliday":"24.6"},{"id":"22","name":"長沙消防局","lat":"22.23663200","long":"113.95434900","street":"嶼南道","fare":"16.0","fareHoliday":"24.6"},{"id":"23","name":"麗濱別墅","lat":"22.23621700","long":"113.95191600","street":"嶼南道","fare":"16.0","fareHoliday":"24.6"},{"id":"24","name":"蝶崗","lat":"22.23454000","long":"113.94884100","street":"嶼南道","fare":"16.0","fareHoliday":"24.6"},{"id":"25","name":"長沙大橋","lat":"22.23338900","long":"113.94697700","street":"嶼南道","fare":"16.0","fareHoliday":"24.6"},{"id":"26","name":"上長沙海灘","lat":"22.23087700","long":"113.94152500","street":"嶼南道","fare":"16.0","fareHoliday":"24.6"},{"id":"27","name":"塘福海灘","lat":"22.22850900","long":"113.93533900","street":"嶼南道","fare":"16.0","fareHoliday":"24.6"},{"id":"28","name":"塘福村","lat":"22.22756500","long":"113.93270600","street":"嶼南道","fare":"12.5","fareHoliday":"20.0"},{"id":"246","name":"塘福海灘","lat":"22.22894100","long":"113.93594400","street":"嶼南道","fare":"12.5","fareHoliday":"20.0"},{"id":"247","name":"上長沙海灘","lat":"22.23132900","long":"113.94176600","street":"嶼南道","fare":"12.5","fareHoliday":"20.0"},{"id":"248","name":"長沙大橋","lat":"22.23397900","long":"113.94736600","street":"嶼南道","fare":"12.5","fareHoliday":"20.0"},{"id":"249","name":"蝶崗","lat":"22.23506200","long":"113.94929800","street":"嶼南道","fare":"12.5","fareHoliday":"20.0"},{"id":"250","name":"麗濱別墅","lat":"22.23647200","long":"113.95142400","street":"嶼南道","fare":"12.5","fareHoliday":"20.0"},{"id":"251","name":"長沙消防局","lat":"22.23680300","long":"113.95543400","street":"嶼南道","fare":"12.5","fareHoliday":"20.0"},{"id":"252","name":"長沙下村","lat":"22.23496500","long":"113.95717000","street":"嶼南道","fare":"12.5","fareHoliday":"20.0"},{"id":"253","name":"長沙警署","lat":"22.23396400","long":"113.96017400","street":"嶼南道","fare":"12.5","fareHoliday":"20.0"},{"id":"254","name":"長沙上村","lat":"22.23533000","long":"113.96154700","street":"嶼南道","fare":"12.5","fareHoliday":"20.0"},{"id":"255","name":"散石灣迴旋處","lat":"22.23672700","long":"113.96242400","street":"嶼南道","fare":"12.5","fareHoliday":"20.0"},{"id":"179","name":"東涌道","lat":"22.23791800","long":"113.96292000","street":"嶼南道","fare":"12.5","fareHoliday":"20.0"},{"id":"64","name":"長沙引水道","lat":"22.23981400","long":"113.95721600","street":"東涌道","fare":"12.5","fareHoliday":"20.0"},{"id":"65","name":"伯公坳","lat":"22.24805400","long":"113.94313900","street":"東涌道","fare":"12.5","fareHoliday":"20.0"},{"id":"66","name":"東涌坳管理站","lat":"22.26400600","long":"113.93715500","street":"東涌道","fare":"12.5","fareHoliday":"20.0"},{"id":"67","name":"十八區墳場","lat":"22.26546600","long":"113.93646300","street":"東涌道","fare":"12.5","fareHoliday":"20.0"},{"id":"68","name":"石門甲道","lat":"22.26991800","long":"113.93424300","street":"東涌道","fare":"8.9","fareHoliday":"12.9"},{"id":"69","name":"龍井頭","lat":"22.27597500","long":"113.93337700","street":"東涌道","fare":"8.9","fareHoliday":"12.9"},{"id":"70","name":"黃家圍","lat":"22.27716200","long":"113.93381200","street":"東涌道","fare":"8.9","fareHoliday":"12.9"},{"id":"71","name":"下嶺皮","lat":"22.27873100","long":"113.93547500","street":"東涌道","fare":"8.9","fareHoliday":"12.9"},{"id":"72","name":"上嶺皮","lat":"22.27891200","long":"113.93685600","street":"東涌道","fare":"8.9","fareHoliday":"12.9"},{"id":"73","name":"東涌鄉事委員會","lat":"22.27913800","long":"113.93929900","street":"東涌道","fare":"8.9","fareHoliday":"12.9"},{"id":"74","name":"馬灣新村","lat":"22.27986500","long":"113.94024300","street":"松仁路","fare":"8.9","fareHoliday":"12.9"},{"id":"77","name":"東涌消防局","lat":"22.28603000","long":"113.94105700","street":"順東路","fare":"5.9","fareHoliday":"9.3"},{"id":"78","name":"東涌纜車站","lat":"22.28930100","long":"113.93873300","street":"達東路","fare":"5.9","fareHoliday":"9.3"},{"id":"79","name":"東涌站巴士總站","lat":"22.28986200","long":"113.93961600","street":"達東路","fare":"5.9","fareHoliday":"9.3"},{"id":"114","name":"飛機燃料庫","lat":"22.29358400","long":"113.93212900","street":"觀景路","fare":"5.9","fareHoliday":"9.3"},{"id":"115","name":"國泰城","lat":"22.29754600","long":"113.93281400","street":"觀景路","fare":"5.9","fareHoliday":"9.3"},{"id":"116","name":"二號檢查閘","lat":"22.31053500","long":"113.93710700","street":"暢連路","fare":"5.9","fareHoliday":"9.3"},{"id":"117","name":"機場(客運大樓)","lat":"22.31456900","long":"113.93661000","street":"暢達路","fare":"5.9","fareHoliday":"9.3"},{"id":"308","name":"大橋香港口岸旅檢大樓","lat":"22.31721100","long":"113.95053100","street":"大橋香港口岸","fare":"5.9","fareHoliday":"9.3"},{"id":"307","name":"大橋香港口岸","lat":"22.31640000","long":"113.95085600","street":"大橋香港口岸 (抵港層)","fare":"0.0","fareHoliday":"0.0"}],"routeId":"90"}]