[{"company":"nlb","route":"B2P","routeType":null,"dir":null,"orig":"深圳灣口岸","dest":"天水圍 (天慈邨)","stopList":[{"id":"152","name":"深圳灣口岸","lat":"22.49743300","long":"113.95050900","street":"深圳灣口岸","fare":"9.4","fareHoliday":"9.4"},{"id":"170","name":"天盛苑","lat":"22.44698800","long":"114.00279400","street":"屏廈路","fare":"3.8","fareHoliday":"3.8"},{"id":"171","name":"天水圍警署","lat":"22.45017100","long":"114.00250400","street":"天耀路","fare":"3.8","fareHoliday":"3.8"},{"id":"172","name":"嘉湖山莊賞湖居","lat":"22.45255000","long":"114.00216900","street":"天湖路","fare":"3.8","fareHoliday":"3.8"},{"id":"167","name":"天水圍公園","lat":"22.45455700","long":"114.00254300","street":"天瑞路","fare":"3.8","fareHoliday":"3.8"},{"id":"166","name":"天瑞邨","lat":"22.45699400","long":"113.99885700","street":"天瑞路","fare":"3.8","fareHoliday":"3.8"},{"id":"173","name":"天頌苑","lat":"22.45986400","long":"114.00007900","street":"天榮路","fare":"3.8","fareHoliday":"3.8"},{"id":"174","name":"嘉湖山莊麗湖居","lat":"22.45893400","long":"114.00359200","street":"天城路","fare":"3.8","fareHoliday":"3.8"},{"id":"175","name":"嘉湖山莊景湖居","lat":"22.45736400","long":"114.00579700","street":"天城路","fare":"3.8","fareHoliday":"3.8"},{"id":"162","name":"天水圍 (天慈邨)","lat":"22.45353600","long":"114.00711100","street":"天喜街","fare":"0.0","fareHoliday":"0.0"}],"routeId":"34","description":"正常班次"},{"company":"nlb","route":"B2P","routeType":null,"dir":null,"orig":"天水圍 (天慈邨)","dest":"深圳灣口岸","stopList":[{"id":"203","name":"天水圍 (天慈邨)","lat":"22.45353600","long":"114.00711100","street":"天喜街","fare":"9.4","fareHoliday":"9.4"},{"id":"163","name":"嘉湖海逸酒店","lat":"22.45860500","long":"114.00326000","street":"天恩路","fare":"9.4","fareHoliday":"9.4"},{"id":"164","name":"天水圍市中心","lat":"22.45849800","long":"114.00199400","street":"天恩路","fare":"9.4","fareHoliday":"9.4"},{"id":"165","name":"嘉湖山莊翠湖居","lat":"22.45959500","long":"113.99998400","street":"天榮路","fare":"9.4","fareHoliday":"9.4"},{"id":"205","name":"天瑞邨","lat":"22.45659700","long":"113.99943400","street":"天瑞路","fare":"9.4","fareHoliday":"9.4"},{"id":"206","name":"天水圍公園","lat":"22.45455500","long":"114.00305500","street":"天瑞路","fare":"9.4","fareHoliday":"9.4"},{"id":"168","name":"天耀邨耀盛樓","lat":"22.45222100","long":"114.00216500","street":"天湖路","fare":"9.4","fareHoliday":"9.4"},{"id":"169","name":"天耀邨耀民樓","lat":"22.44955000","long":"114.00317400","street":"天耀路","fare":"9.4","fareHoliday":"9.4"},{"id":"207","name":"天盛苑","lat":"22.44669700","long":"114.00300000","street":"屏廈路","fare":"9.4","fareHoliday":"9.4"},{"id":"152","name":"深圳灣口岸","lat":"22.49743300","long":"113.95050900","street":"深圳灣口岸","fare":"0.0","fareHoliday":"0.0"}],"routeId":"33","description":"正常班次"}]