[{"company":"NLB","route":"B4","routeType":null,"dir":null,"orig":"大橋香港口岸","dest":"機場 (客運大樓) (循環線)","stopList":[{"id":"307","name":"大橋香港口岸","lat":"22.31640000","long":"113.95085600","street":"大橋香港口岸 (抵港層)","fare":"8.3","fareHoliday":"8.3"},{"id":"117","name":"機場(客運大樓)","lat":"22.31456900","long":"113.93661000","street":"暢達路","fare":"8.3","fareHoliday":"8.3"},{"id":"118","name":"暢達路","lat":"22.31623600","long":"113.93594800","street":"暢達路","fare":"8.3","fareHoliday":"8.3"},{"id":"120","name":"富豪機場酒店","lat":"22.31943000","long":"113.93394200","street":"暢達路","fare":"8.3","fareHoliday":"8.3"},{"id":"311","name":"機場博覽館","lat":"22.31932300","long":"113.94044600","street":"機場博覽館","fare":"8.3","fareHoliday":"8.3"},{"id":"312","name":"香港天際萬豪酒店","lat":"22.31777700","long":"113.94331700","street":"航天城東路","fare":"8.3","fareHoliday":"8.3"},{"id":"308","name":"大橋香港口岸旅檢大樓","lat":"22.31721100","long":"113.95053100","street":"大橋香港口岸","fare":"8.3","fareHoliday":"8.3"},{"id":"313","name":"大橋香港口岸","lat":"22.31640000","long":"113.95085600","street":"大橋香港口岸 (抵港層)","fare":"0.0","fareHoliday":"0.0"}],"routeId":"87"}]