[{"company":"nlb","route":"B6","routeType":null,"dir":null,"orig":"大橋香港口岸","dest":"滿東邨","stopList":[{"id":"307","name":"大橋香港口岸","lat":"22.31640000","long":"113.95085600","street":"大橋香港口岸 (抵港層)","fare":"8.3","fareHoliday":"8.3"},{"id":"78","name":"東涌纜車站","lat":"22.28930100","long":"113.93873300","street":"達東路","fare":"8.3","fareHoliday":"8.3"},{"id":"79","name":"東涌站巴士總站","lat":"22.28986200","long":"113.93961600","street":"達東路","fare":"4.9","fareHoliday":"4.9"},{"id":"81","name":"裕東苑","lat":"22.28607700","long":"113.94160300","street":"順東路","fare":"4.9","fareHoliday":"4.9"},{"id":"310","name":"滿東邨","lat":"22.27892200","long":"113.93455600","street":"裕東路","fare":"0.0","fareHoliday":"0.0"}],"routeId":"88"},{"company":"nlb","route":"B6","routeType":null,"dir":null,"orig":"滿東邨","dest":"大橋香港口岸","stopList":[{"id":"309","name":"滿東邨","lat":"22.27865300","long":"113.93320300","street":"裕東路","fare":"8.3","fareHoliday":"8.3"},{"id":"103","name":"逸東邨福逸樓","lat":"22.27921600","long":"113.93465100","street":"裕東路","fare":"8.3","fareHoliday":"8.3"},{"id":"306","name":"逸東邨雍逸樓","lat":"22.27974400","long":"113.93699500","street":"裕東路","fare":"8.3","fareHoliday":"8.3"},{"id":"77","name":"東涌消防局","lat":"22.28603000","long":"113.94105700","street":"順東路","fare":"8.3","fareHoliday":"8.3"},{"id":"317","name":"東涌達東路巴士總站","lat":"22.29058000","long":"113.93935200","street":"達東路","fare":"8.3","fareHoliday":"8.3"},{"id":"308","name":"大橋香港口岸旅檢大樓","lat":"22.31721100","long":"113.95053100","street":"大橋香港口岸","fare":"8.3","fareHoliday":"8.3"},{"id":"313","name":"大橋香港口岸","lat":"22.31640000","long":"113.95085600","street":"大橋香港口岸 (抵港層)","fare":"0.0","fareHoliday":"0.0"}],"routeId":"89"}]