[{"company":"nlb","route":"37H","routeType":null,"dir":null,"orig":"迎東邨","dest":"北大嶼山醫院 (循環線)","stopList":[{"id":"297","name":"迎東邨","lat":"22.29710400","long":"113.95334200","street":"迎東邨","fare":"3.7","fareHoliday":"3.7"},{"id":"191","name":"昇薈(南行)","lat":"22.29583500","long":"113.95207700","street":"迎東路","fare":"3.7","fareHoliday":"3.7"},{"id":"298","name":"映灣園二期","lat":"22.29193200","long":"113.95049000","street":"文東路","fare":"3.7","fareHoliday":"3.7"},{"id":"111","name":"怡東路","lat":"22.29094900","long":"113.94801200","street":"文東路","fare":"3.7","fareHoliday":"3.7"},{"id":"112","name":"怡文中學","lat":"22.29085000","long":"113.94461100","street":"文東路","fare":"3.7","fareHoliday":"3.7"},{"id":"299","name":"海堤灣畔","lat":"22.29303900","long":"113.94317900","street":"惠東路","fare":"3.7","fareHoliday":"3.7"},{"id":"106","name":"東涌發展碼頭","lat":"22.29384600","long":"113.94044900","street":"東涌海濱路","fare":"3.7","fareHoliday":"3.7"},{"id":"78","name":"東涌纜車站","lat":"22.28930100","long":"113.93873300","street":"達東路","fare":"3.7","fareHoliday":"3.7"},{"id":"278","name":"東涌站巴士總站","lat":"22.28986200","long":"113.93961600","street":"達東路","fare":"3.7","fareHoliday":"3.7"},{"id":"81","name":"裕東苑","lat":"22.28607700","long":"113.94160300","street":"順東路","fare":"3.7","fareHoliday":"3.7"},{"id":"185","name":"北大嶼山醫院(北行), 逸東邨美逸樓","lat":"22.28129500","long":"113.93882200","street":"松仁路","fare":"3.7","fareHoliday":"3.7"},{"id":"188","name":"北大嶼山醫院(主座大樓)","lat":"22.28202800","long":"113.93926900","street":"北大嶼山醫院急症室外","fare":"3.7","fareHoliday":"3.7"},{"id":"90","name":"裕泰苑","lat":"22.28056500","long":"113.94106400","street":"東涌道","fare":"3.7","fareHoliday":"3.7"},{"id":"74","name":"馬灣新村","lat":"22.27986500","long":"113.94024300","street":"松仁路","fare":"3.7","fareHoliday":"3.7"},{"id":"310","name":"滿東邨","lat":"22.27892200","long":"113.93455600","street":"裕東路","fare":"3.7","fareHoliday":"3.7"},{"id":"103","name":"逸東邨福逸樓","lat":"22.27921600","long":"113.93465100","street":"裕東路","fare":"3.7","fareHoliday":"3.7"},{"id":"104","name":"逸東邨雍逸樓","lat":"22.27959200","long":"113.93671200","street":"裕東路","fare":"3.7","fareHoliday":"3.7"},{"id":"320","name":"北大嶼山醫院(北行), 逸東邨美逸樓","lat":"22.28129500","long":"113.93882200","street":"松仁路","fare":"3.7","fareHoliday":"3.7"},{"id":"89","name":"逸東邨","lat":"22.28205300","long":"113.93586200","street":"逸東街","fare":"3.7","fareHoliday":"3.7"},{"id":"322","name":"北大嶼山醫院(南行)","lat":"22.28186100","long":"113.93880300","street":"松仁路","fare":"3.7","fareHoliday":"3.7"},{"id":"77","name":"東涌消防局","lat":"22.28603000","long":"113.94105700","street":"順東路","fare":"3.7","fareHoliday":"3.7"},{"id":"321","name":"東涌纜車站","lat":"22.28930100","long":"113.93843900","street":"達東路","fare":"3.7","fareHoliday":"3.7"},{"id":"332","name":"東涌站巴士總站","lat":"22.28986200","long":"113.93961600","street":"達東路","fare":"3.7","fareHoliday":"3.7"},{"id":"319","name":"東涌發展碼頭","lat":"22.29384600","long":"113.94044900","street":"東涌海濱路","fare":"3.7","fareHoliday":"3.7"},{"id":"107","name":"海堤灣畔","lat":"22.29292500","long":"113.94347100","street":"惠東路","fare":"3.7","fareHoliday":"3.7"},{"id":"108","name":"藍天海岸","lat":"22.29094200","long":"113.94593100","street":"文東路","fare":"3.7","fareHoliday":"3.7"},{"id":"186","name":"映灣園三期","lat":"22.29142400","long":"113.94897500","street":"文東路","fare":"3.7","fareHoliday":"3.7"},{"id":"109","name":"映灣園二期","lat":"22.29188200","long":"113.95001000","street":"文東路","fare":"3.7","fareHoliday":"3.7"},{"id":"194","name":"映灣園一期","lat":"22.29349500","long":"113.95181600","street":"文東路","fare":"3.7","fareHoliday":"3.7"},{"id":"190","name":"昇薈(北行)","lat":"22.29582300","long":"113.95190700","street":"迎東路","fare":"3.7","fareHoliday":"3.7"},{"id":"193","name":"迎東邨","lat":"22.29710400","long":"113.95334200","street":"迎東邨","fare":"0.0","fareHoliday":"0.0"}],"routeId":"96","description":"正常班次"}]